{
	"items" : [
		{
			"difficulty" :      "2.9",
			"hours" :           "13.6",
			"label" :           "6.163",
			"term" :            "Spring 2007",
			"type" :            "Class-Rating",
			"rating" :          "5",
			"class-rating-of" : "6.163"
		},
		{
			"difficulty" :      "4.3",
			"hours" :           "12.3",
			"label" :           "6.581",
			"term" :            "Spring 2007",
			"type" :            "Class-Rating",
			"rating" :          "4.9",
			"class-rating-of" : "6.581"
		},
		{
			"difficulty" :      "5.5",
			"hours" :           "10.7",
			"label" :           "6.841J/18.405J",
			"term" :            "Spring 2007",
			"type" :            "Class-Rating",
			"rating" :          "6.3",
			"class-rating-of" : "6.841J/18.405J"
		},
		{
			"difficulty" :      "4",
			"hours" :           "12.3",
			"label" :           "6.00",
			"term" :            "Spring 2007",
			"type" :            "Class-Rating",
			"rating" :          "5.4",
			"class-rating-of" : "6.00"
		},
		{
			"difficulty" :      "4.3",
			"hours" :           "13.8",
			"label" :           "6.034",
			"term" :            "Spring 2007",
			"type" :            "Class-Rating",
			"rating" :          "4.6",
			"class-rating-of" : "6.034"
		},
		{
			"difficulty" :      "5.2",
			"hours" :           "9.2",
			"label" :           "6.441",
			"term" :            "Spring 2007",
			"type" :            "Class-Rating",
			"rating" :          "6.1",
			"class-rating-of" : "6.441"
		},
		{
			"difficulty" :      "5.7",
			"hours" :           "33.3",
			"label" :           "6.170",
			"term" :            "Spring 2007",
			"type" :            "Class-Rating",
			"rating" :          "4.7",
			"class-rating-of" : "6.170"
		},
		{
			"difficulty" :      "4.9",
			"hours" :           "8.9",
			"label" :           "6.976",
			"term" :            "Spring 2007",
			"type" :            "Class-Rating",
			"rating" :          "6",
			"class-rating-of" : "6.976"
		},
		{
			"difficulty" :      "5.4",
			"hours" :           "10.6",
			"label" :           "6.046/18.410J",
			"term" :            "Spring 2007",
			"type" :            "Class-Rating",
			"rating" :          "5.3",
			"class-rating-of" : "6.046/18.410J"
		},
		{
			"difficulty" :      "4",
			"hours" :           "9.5",
			"label" :           "6.789",
			"term" :            "Spring 2007",
			"type" :            "Class-Rating",
			"rating" :          "5.9",
			"class-rating-of" : "6.789"
		},
		{
			"difficulty" :      "4.5",
			"hours" :           "8.8",
			"label" :           "6.442",
			"term" :            "Spring 2007",
			"type" :            "Class-Rating",
			"rating" :          "6.3",
			"class-rating-of" : "6.442"
		},
		{
			"difficulty" :      "4",
			"hours" :           "10.2",
			"label" :           "6.01",
			"term" :            "Spring 2007",
			"type" :            "Class-Rating",
			"rating" :          "4.6",
			"class-rating-of" : "6.01"
		},
		{
			"difficulty" :      "3.9",
			"hours" :           "10.5",
			"label" :           "6.870",
			"term" :            "Spring 2007",
			"type" :            "Class-Rating",
			"rating" :          "5.6",
			"class-rating-of" : "6.870"
		},
		{
			"difficulty" :      "4.7",
			"hours" :           "20.1",
			"label" :           "6.111",
			"term" :            "Spring 2007",
			"type" :            "Class-Rating",
			"rating" :          "5.9",
			"class-rating-of" : "6.111"
		},
		{
			"difficulty" :      "5.3",
			"hours" :           "17.7",
			"label" :           "6.522",
			"term" :            "Spring 2007",
			"type" :            "Class-Rating",
			"rating" :          "6.3",
			"class-rating-of" : "6.522"
		},
		{
			"difficulty" :      "4.4",
			"hours" :           "17.5",
			"label" :           "6.869",
			"term" :            "Spring 2007",
			"type" :            "Class-Rating",
			"rating" :          "6.2",
			"class-rating-of" : "6.869"
		},
		{
			"difficulty" :      "3.3",
			"hours" :           "5.8",
			"label" :           "6.898",
			"term" :            "Spring 2007",
			"type" :            "Class-Rating",
			"rating" :          "5.4",
			"class-rating-of" : "6.898"
		},
		{
			"difficulty" :      "5.4",
			"hours" :           "14.7",
			"label" :           "6.730",
			"term" :            "Spring 2007",
			"type" :            "Class-Rating",
			"rating" :          "6.4",
			"class-rating-of" : "6.730"
		},
		{
			"difficulty" :      "5.2",
			"hours" :           "18.1",
			"label" :           "6.775",
			"term" :            "Spring 2007",
			"type" :            "Class-Rating",
			"rating" :          "5.8",
			"class-rating-of" : "6.775"
		},
		{
			"difficulty" :      "3.6",
			"hours" :           "5.9",
			"label" :           "6.803",
			"term" :            "Spring 2007",
			"type" :            "Class-Rating",
			"rating" :          "6.5",
			"class-rating-of" : "6.803"
		},
		{
			"difficulty" :      "3",
			"hours" :           "5.5",
			"label" :           "6.938",
			"term" :            "Spring 2007",
			"type" :            "Class-Rating",
			"rating" :          "5.3",
			"class-rating-of" : "6.938"
		},
		{
			"difficulty" :      "5.7",
			"hours" :           "16.5",
			"label" :           "6.342",
			"term" :            "Spring 2007",
			"type" :            "Class-Rating",
			"rating" :          "6",
			"class-rating-of" : "6.342"
		},
		{
			"difficulty" :      "5.5",
			"hours" :           "12.5",
			"label" :           "6.524",
			"term" :            "Spring 2007",
			"type" :            "Class-Rating",
			"rating" :          "4",
			"class-rating-of" : "6.524"
		},
		{
			"difficulty" :      "4.9",
			"hours" :           "13.2",
			"label" :           "6.022",
			"term" :            "Spring 2007",
			"type" :            "Class-Rating",
			"rating" :          "6.1",
			"class-rating-of" : "6.022"
		},
		{
			"difficulty" :      "5.5",
			"hours" :           "14.6",
			"label" :           "6.720J/3.43J",
			"term" :            "Spring 2007",
			"type" :            "Class-Rating",
			"rating" :          "6.5",
			"class-rating-of" : "6.720J/3.43J"
		},
		{
			"difficulty" :      "4.5",
			"hours" :           "18.1",
			"label" :           "6.345J/HST.728J",
			"term" :            "Spring 2007",
			"type" :            "Class-Rating",
			"rating" :          "6",
			"class-rating-of" : "6.345J/HST.728J"
		},
		{
			"difficulty" :      "4.8",
			"hours" :           "9.3",
			"label" :           "6.435",
			"term" :            "Spring 2007",
			"type" :            "Class-Rating",
			"rating" :          "5.6",
			"class-rating-of" : "6.435"
		},
		{
			"difficulty" :      "5.3",
			"hours" :           "15",
			"label" :           "6.085",
			"term" :            "Spring 2007",
			"type" :            "Class-Rating",
			"rating" :          "6.3",
			"class-rating-of" : "6.085"
		},
		{
			"difficulty" :      "4.9",
			"hours" :           "11.5",
			"label" :           "6.041",
			"term" :            "Spring 2007",
			"type" :            "Class-Rating",
			"rating" :          "5.1",
			"class-rating-of" : "6.041"
		},
		{
			"difficulty" :      "3.1",
			"hours" :           "8.2",
			"label" :           "6.868",
			"term" :            "Spring 2007",
			"type" :            "Class-Rating",
			"rating" :          "5.9",
			"class-rating-of" : "6.868"
		},
		{
			"difficulty" :      "3",
			"hours" :           "6.2",
			"label" :           "6.UAT",
			"term" :            "Spring 2007",
			"type" :            "Class-Rating",
			"rating" :          "5.4",
			"class-rating-of" : "6.UAT"
		},
		{
			"difficulty" :      "2.4",
			"hours" :           "7.5",
			"label" :           "6.931",
			"term" :            "Spring 2007",
			"type" :            "Class-Rating",
			"rating" :          "5.6",
			"class-rating-of" : "6.931"
		},
		{
			"difficulty" :      "5.7",
			"hours" :           "14.9",
			"label" :           "6.875J/18.425J",
			"term" :            "Spring 2007",
			"type" :            "Class-Rating",
			"rating" :          "5.2",
			"class-rating-of" : "6.875J/18.425J"
		},
		{
			"difficulty" :      "5.5",
			"hours" :           "13.5",
			"label" :           "6.084",
			"term" :            "Spring 2007",
			"type" :            "Class-Rating",
			"rating" :          "5.5",
			"class-rating-of" : "6.084"
		},
		{
			"difficulty" :      "4.1",
			"hours" :           "10.6",
			"label" :           "6.042",
			"term" :            "Spring 2007",
			"type" :            "Class-Rating",
			"rating" :          "4.3",
			"class-rating-of" : "6.042"
		},
		{
			"difficulty" :      "5.4",
			"hours" :           "21.2",
			"label" :           "6.115",
			"term" :            "Spring 2007",
			"type" :            "Class-Rating",
			"rating" :          "6.3",
			"class-rating-of" : "6.115"
		},
		{
			"difficulty" :      "3.3",
			"hours" :           "12.6",
			"label" :           "6.541J/24.968J/HST.710J",
			"term" :            "Spring 2007",
			"type" :            "Class-Rating",
			"rating" :          "3.3",
			"class-rating-of" : "6.541J/24.968J/HST.710J"
		},
		{
			"difficulty" :      "7",
			"hours" :           "17.5",
			"label" :           "6.634",
			"term" :            "Spring 2007",
			"type" :            "Class-Rating",
			"rating" :          "1",
			"class-rating-of" : "6.634"
		},
		{
			"difficulty" :      "4.5",
			"hours" :           "11.8",
			"label" :           "6.334",
			"term" :            "Spring 2007",
			"type" :            "Class-Rating",
			"rating" :          "6.5",
			"class-rating-of" : "6.334"
		},
		{
			"difficulty" :      "4.3",
			"hours" :           "13.3",
			"label" :           "6.887",
			"term" :            "Spring 2007",
			"type" :            "Class-Rating",
			"rating" :          "6.3",
			"class-rating-of" : "6.887"
		},
		{
			"difficulty" :      "6",
			"hours" :           "13",
			"label" :           "6.975",
			"term" :            "Spring 2007",
			"type" :            "Class-Rating",
			"rating" :          "7",
			"class-rating-of" : "6.975"
		},
		{
			"difficulty" :      "6.1",
			"hours" :           "17.3",
			"label" :           "6.437",
			"term" :            "Spring 2007",
			"type" :            "Class-Rating",
			"rating" :          "5.3",
			"class-rating-of" : "6.437"
		},
		{
			"difficulty" :      "4.6",
			"hours" :           "18",
			"label" :           "6.001",
			"term" :            "Spring 2007",
			"type" :            "Class-Rating",
			"rating" :          "5.5",
			"class-rating-of" : "6.001"
		},
		{
			"difficulty" :      "4.9",
			"hours" :           "11",
			"label" :           "6.011",
			"term" :            "Spring 2007",
			"type" :            "Class-Rating",
			"rating" :          "5.5",
			"class-rating-of" : "6.011"
		},
		{
			"difficulty" :      "4.9",
			"hours" :           "7.9",
			"label" :           "6.850",
			"term" :            "Spring 2007",
			"type" :            "Class-Rating",
			"rating" :          "5.4",
			"class-rating-of" : "6.850"
		},
		{
			"difficulty" :      "4.3",
			"hours" :           "11.4",
			"label" :           "6.632",
			"term" :            "Spring 2007",
			"type" :            "Class-Rating",
			"rating" :          "6.4",
			"class-rating-of" : "6.632"
		},
		{
			"difficulty" :      "4",
			"hours" :           "11.2",
			"label" :           "6.033",
			"term" :            "Spring 2007",
			"type" :            "Class-Rating",
			"rating" :          "4.8",
			"class-rating-of" : "6.033"
		},
		{
			"difficulty" :      "4.5",
			"hours" :           "13.5",
			"label" :           "6.012",
			"term" :            "Spring 2007",
			"type" :            "Class-Rating",
			"rating" :          "4.2",
			"class-rating-of" : "6.012"
		},
		{
			"difficulty" :      "5",
			"hours" :           "17.6",
			"label" :           "6.141",
			"term" :            "Spring 2007",
			"type" :            "Class-Rating",
			"rating" :          "5.8",
			"class-rating-of" : "6.141"
		},
		{
			"difficulty" :      "5.7",
			"hours" :           "18.5",
			"label" :           "6.856J/18.416J",
			"term" :            "Spring 2007",
			"type" :            "Class-Rating",
			"rating" :          "6.1",
			"class-rating-of" : "6.856J/18.416J"
		},
		{
			"difficulty" :      "5.7",
			"hours" :           "19.8",
			"label" :           "6.777J/2.372J",
			"term" :            "Spring 2007",
			"type" :            "Class-Rating",
			"rating" :          "5.5",
			"class-rating-of" : "6.777J/2.372J"
		},
		{
			"difficulty" :      "4",
			"hours" :           "11.5",
			"label" :           "6.555J/16.456J/HST.582J",
			"term" :            "Spring 2007",
			"type" :            "Class-Rating",
			"rating" :          "5.8",
			"class-rating-of" : "6.555J/16.456J/HST.582J"
		},
		{
			"difficulty" :      "4.5",
			"hours" :           "15.3",
			"label" :           "6.891",
			"term" :            "Spring 2007",
			"type" :            "Class-Rating",
			"rating" :          "5.9",
			"class-rating-of" : "6.891"
		},
		{
			"difficulty" :      "3.7",
			"hours" :           "9.5",
			"label" :           "6.004",
			"term" :            "Spring 2007",
			"type" :            "Class-Rating",
			"rating" :          "5.8",
			"class-rating-of" : "6.004"
		},
		{
			"difficulty" :      "4.9",
			"hours" :           "11.9",
			"label" :           "6.07J",
			"term" :            "Spring 2007",
			"type" :            "Class-Rating",
			"rating" :          "6.9",
			"class-rating-of" : "6.07J"
		},
		{
			"difficulty" :      "4.7",
			"hours" :           "13.3",
			"label" :           "6.003",
			"term" :            "Spring 2007",
			"type" :            "Class-Rating",
			"rating" :          "5.2",
			"class-rating-of" : "6.003"
		},
		{
			"difficulty" :      "5.8",
			"hours" :           "13.8",
			"label" :           "6.781J/2.391J",
			"term" :            "Spring 2007",
			"type" :            "Class-Rating",
			"rating" :          "4.3",
			"class-rating-of" : "6.781J/2.391J"
		},
		{
			"difficulty" :      "4.8",
			"hours" :           "15.8",
			"label" :           "6.002",
			"term" :            "Spring 2007",
			"type" :            "Class-Rating",
			"rating" :          "4.8",
			"class-rating-of" : "6.002"
		},
		{
			"difficulty" :      "5.7",
			"hours" :           "9.3",
			"label" :           "6.262",
			"term" :            "Spring 2007",
			"type" :            "Class-Rating",
			"rating" :          "5.7",
			"class-rating-of" : "6.262"
		},
		{
			"difficulty" :      "3.6",
			"hours" :           "11",
			"label" :           "6.883",
			"term" :            "Spring 2007",
			"type" :            "Class-Rating",
			"rating" :          "4.5",
			"class-rating-of" : "6.883"
		},
		{
			"difficulty" :      "3.7",
			"hours" :           "9.6",
			"label" :           "6.863J/9.611J",
			"term" :            "Spring 2007",
			"type" :            "Class-Rating",
			"rating" :          "4.8",
			"class-rating-of" : "6.863J/9.611J"
		},
		{
			"difficulty" :      "4.2",
			"hours" :           "12.7",
			"label" :           "6.013",
			"term" :            "Spring 2007",
			"type" :            "Class-Rating",
			"rating" :          "5.7",
			"class-rating-of" : "6.013"
		},
		{
			"difficulty" :      "5.7",
			"hours" :           "11.5",
			"label" :           "6.974",
			"term" :            "Spring 2007",
			"type" :            "Class-Rating",
			"rating" :          "6.7",
			"class-rating-of" : "6.974"
		},
		{
			"difficulty" :      "5",
			"hours" :           "19.6",
			"label" :           "6.101",
			"term" :            "Spring 2007",
			"type" :            "Class-Rating",
			"rating" :          "6.1",
			"class-rating-of" : "6.101"
		},
		{
			"difficulty" :      "5.5",
			"hours" :           "12.8",
			"label" :           "6.252",
			"term" :            "Spring 2007",
			"type" :            "Class-Rating",
			"rating" :          "5.3",
			"class-rating-of" : "6.252"
		},
		{
			"difficulty" :      "4.7",
			"hours" :           "17.6",
			"label" :           "6.896",
			"term" :            "Spring 2007",
			"type" :            "Class-Rating",
			"rating" :          "6.3",
			"class-rating-of" : "6.896"
		},
		{
			"difficulty" :      "5",
			"hours" :           "13.1",
			"label" :           "6.851",
			"term" :            "Spring 2007",
			"type" :            "Class-Rating",
			"rating" :          "6.3",
			"class-rating-of" : "6.851"
		},
		{
			"difficulty" :      "2.8",
			"hours" :           "7",
			"label" :           "6.772",
			"term" :            "Spring 2007",
			"type" :            "Class-Rating",
			"rating" :          "5.2",
			"class-rating-of" : "6.772"
		},
		{
			"difficulty" :      "4",
			"hours" :           "6.3",
			"label" :           "6.050",
			"term" :            "Spring 2007",
			"type" :            "Class-Rating",
			"rating" :          "6",
			"class-rating-of" : "6.050"
		},
		{
			"difficulty" :      "5.3",
			"hours" :           "10.6",
			"label" :           "6.061",
			"term" :            "Spring 2007",
			"type" :            "Class-Rating",
			"rating" :          "5.6",
			"class-rating-of" : "6.061"
		},
		{
			"difficulty" :      "4.8",
			"hours" :           "14.3",
			"label" :           "6.881",
			"term" :            "Spring 2007",
			"type" :            "Class-Rating",
			"rating" :          "6.1",
			"class-rating-of" : "6.881"
		},
		{
			"difficulty" :      "5.7",
			"hours" :           "17.2",
			"label" :           "6.839",
			"term" :            "Spring 2007",
			"type" :            "Class-Rating",
			"rating" :          "5",
			"class-rating-of" : "6.839"
		},
		{
			"difficulty" :      "6.1",
			"hours" :           "21.7",
			"label" :           "6.972",
			"term" :            "Spring 2007",
			"type" :            "Class-Rating",
			"rating" :          "6.4",
			"class-rating-of" : "6.972"
		},
		{
			"difficulty" :      "5",
			"hours" :           "24.2",
			"label" :           "6.375",
			"term" :            "Spring 2007",
			"type" :            "Class-Rating",
			"rating" :          "4.1",
			"class-rating-of" : "6.375"
		},
		{
			"difficulty" :      "4.7",
			"hours" :           "10.7",
			"label" :           "6.152",
			"term" :            "Spring 2007",
			"type" :            "Class-Rating",
			"rating" :          "3.3",
			"class-rating-of" : "6.152"
		},
		{
			"difficulty" :      "4.8",
			"hours" :           "11.1",
			"label" :           "6.344",
			"term" :            "Spring 2007",
			"type" :            "Class-Rating",
			"rating" :          "6.2",
			"class-rating-of" : "6.344"
		},
		{
			"difficulty" :      "4.7",
			"hours" :           "16.3",
			"label" :           "6.882",
			"term" :            "Spring 2007",
			"type" :            "Class-Rating",
			"rating" :          "6.9",
			"class-rating-of" : "6.882"
		},
		{
			"difficulty" :      "4.7",
			"hours" :           "14.5",
			"label" :           "6.302",
			"term" :            "Spring 2007",
			"type" :            "Class-Rating",
			"rating" :          "5.8",
			"class-rating-of" : "6.302"
		},
		{
			"difficulty" :      "4.3",
			"hours" :           "7.7",
			"label" :           "6.188",
			"term" :            "Spring 2007",
			"type" :            "Class-Rating",
			"rating" :          "4.7",
			"class-rating-of" : "6.188"
		},
		{
			"difficulty" :      "3.5",
			"hours" :           "11",
			"label" :           "6.02",
			"term" :            "Spring 2007",
			"type" :            "Class-Rating",
			"rating" :          "6.3",
			"class-rating-of" : "6.02"
		},
		{
			"difficulty" :      "4",
			"hours" :           "9.2",
			"label" :           "6.045J/18.400J",
			"term" :            "Spring 2007",
			"type" :            "Class-Rating",
			"rating" :          "5",
			"class-rating-of" : "6.045J/18.400J"
		},
		{
			"professor" :           "J.Bales",
			"label" :               "6.163-1",
			"professor-rating-of" : "6.163",
			"term" :                "Spring 2007",
			"type" :                "Professor-Rating",
			"professor-rating" :    "5.4"
		},
		{
			"professor" :           "K.Asanovic",
			"label" :               "6.375-2",
			"professor-rating-of" : "6.375",
			"term" :                "Spring 2007",
			"type" :                "Professor-Rating",
			"professor-rating" :    "5.8"
		},
		{
			"professor" :           "M.Baldo",
			"label" :               "6.085-1",
			"professor-rating-of" : "6.085",
			"term" :                "Spring 2007",
			"type" :                "Professor-Rating",
			"professor-rating" :    "6.7"
		},
		{
			"professor" :           "W.Freeman",
			"label" :               "6.869-1",
			"professor-rating-of" : "6.869",
			"term" :                "Spring 2007",
			"type" :                "Professor-Rating",
			"professor-rating" :    "6.1"
		},
		{
			"professor" :           "V.Bulovic",
			"label" :               "6.789-1",
			"professor-rating-of" : "6.789",
			"term" :                "Spring 2007",
			"type" :                "Professor-Rating",
			"professor-rating" :    "6.1"
		},
		{
			"professor" :           "J.Popovic",
			"label" :               "6.839-1",
			"professor-rating-of" : "6.839",
			"term" :                "Spring 2007",
			"type" :                "Professor-Rating",
			"professor-rating" :    "4.3"
		},
		{
			"professor" :           "J.Glass",
			"label" :               "6.345J/HST.728J-1",
			"professor-rating-of" : "6.345J/HST.728J",
			"term" :                "Spring 2007",
			"type" :                "Professor-Rating",
			"professor-rating" :    "6.1"
		},
		{
			"professor" :           "N.Lynch",
			"label" :               "6.045J/18.400J-1",
			"professor-rating-of" : "6.045J/18.400J",
			"term" :                "Spring 2007",
			"type" :                "Professor-Rating",
			"professor-rating" :    "4.1"
		},
		{
			"professor" :           "J.Venegas",
			"label" :               "6.022-2",
			"professor-rating-of" : "6.022",
			"term" :                "Spring 2007",
			"type" :                "Professor-Rating",
			"professor-rating" :    "3.6"
		},
		{
			"professor" :           "J.Voldman",
			"label" :               "6.777J/2.372J-1",
			"professor-rating-of" : "6.777J/2.372J",
			"term" :                "Spring 2007",
			"type" :                "Professor-Rating",
			"professor-rating" :    "5.8"
		},
		{
			"professor" :           "A.Meyer",
			"label" :               "6.042-1",
			"professor-rating-of" : "6.042",
			"term" :                "Spring 2007",
			"type" :                "Professor-Rating",
			"professor-rating" :    "4.2"
		},
		{
			"professor" :           "S.Leeb",
			"label" :               "6.115-1",
			"professor-rating-of" : "6.115",
			"term" :                "Spring 2007",
			"type" :                "Professor-Rating",
			"professor-rating" :    "6.5"
		},
		{
			"professor" :           "P.Indyk",
			"label" :               "6.850-1",
			"professor-rating-of" : "6.850",
			"term" :                "Spring 2007",
			"type" :                "Professor-Rating",
			"professor-rating" :    "5.7"
		},
		{
			"professor" :           "J.Kong",
			"label" :               "6.632-1",
			"professor-rating-of" : "6.632",
			"term" :                "Spring 2007",
			"type" :                "Professor-Rating",
			"professor-rating" :    "6.9"
		},
		{
			"professor" :           "C.Fonstad",
			"label" :               "6.772-1",
			"professor-rating-of" : "6.772",
			"term" :                "Spring 2007",
			"type" :                "Professor-Rating",
			"professor-rating" :    "6"
		},
		{
			"professor" :           "T.Heldt",
			"label" :               "6.022-3",
			"professor-rating-of" : "6.022",
			"term" :                "Spring 2007",
			"type" :                "Professor-Rating",
			"professor-rating" :    "6.4"
		},
		{
			"professor" :           "H.Abelson",
			"label" :               "6.188-1",
			"professor-rating-of" : "6.188",
			"term" :                "Spring 2007",
			"type" :                "Professor-Rating",
			"professor-rating" :    "4.7"
		},
		{
			"professor" :           "J.Alamo",
			"label" :               "6.720J/3.43J-1",
			"professor-rating-of" : "6.720J/3.43J",
			"term" :                "Spring 2007",
			"type" :                "Professor-Rating",
			"professor-rating" :    "6.5"
		},
		{
			"professor" :           "V.Chan",
			"label" :               "6.442-1",
			"professor-rating-of" : "6.442",
			"term" :                "Spring 2007",
			"type" :                "Professor-Rating",
			"professor-rating" :    "6"
		},
		{
			"professor" :           "J.Craig",
			"label" :               "6.141-4",
			"professor-rating-of" : "6.141",
			"term" :                "Spring 2007",
			"type" :                "Professor-Rating",
			"professor-rating" :    "4.6"
		},
		{
			"professor" :           "P.Golland",
			"label" :               "6.437-1",
			"professor-rating-of" : "6.437",
			"term" :                "Spring 2007",
			"type" :                "Professor-Rating",
			"professor-rating" :    "5.5"
		},
		{
			"professor" :           "J.Kirtley",
			"label" :               "6.061-1",
			"professor-rating-of" : "6.061",
			"term" :                "Spring 2007",
			"type" :                "Professor-Rating",
			"professor-rating" :    "5.4"
		},
		{
			"professor" :           "R.Rubinfeld",
			"label" :               "6.896-1",
			"professor-rating-of" : "6.896",
			"term" :                "Spring 2007",
			"type" :                "Professor-Rating",
			"professor-rating" :    "6"
		},
		{
			"professor" :           "M.Minsky",
			"label" :               "6.868-1",
			"professor-rating-of" : "6.868",
			"term" :                "Spring 2007",
			"type" :                "Professor-Rating",
			"professor-rating" :    "5.6"
		},
		{
			"professor" :           "H.Abelson",
			"label" :               "6.01-3",
			"professor-rating-of" : "6.01",
			"term" :                "Spring 2007",
			"type" :                "Professor-Rating",
			"professor-rating" :    "4.8"
		},
		{
			"professor" :           "L.Zheng",
			"label" :               "6.441-1",
			"professor-rating-of" : "6.441",
			"term" :                "Spring 2007",
			"type" :                "Professor-Rating",
			"professor-rating" :    "6.1"
		},
		{
			"professor" :           "R.Rines",
			"label" :               "6.931-2",
			"professor-rating-of" : "6.931",
			"term" :                "Spring 2007",
			"type" :                "Professor-Rating",
			"professor-rating" :    "6.2"
		},
		{
			"professor" :           "T.Eng",
			"label" :               "6.UAT-1",
			"professor-rating-of" : "6.UAT",
			"term" :                "Spring 2007",
			"type" :                "Professor-Rating",
			"professor-rating" :    "6.3"
		},
		{
			"professor" :           "G.Clifford",
			"label" :               "6.555J/16.456J/HST.582J-3",
			"professor-rating-of" : "6.555J/16.456J/HST.582J",
			"term" :                "Spring 2007",
			"type" :                "Professor-Rating",
			"professor-rating" :    "5.1"
		},
		{
			"professor" :           "M.Schmidt",
			"label" :               "6.152-1",
			"professor-rating-of" : "6.152",
			"term" :                "Spring 2007",
			"type" :                "Professor-Rating",
			"professor-rating" :    "4.7"
		},
		{
			"professor" :           "A.Chandrakasan",
			"label" :               "6.111-1",
			"professor-rating-of" : "6.111",
			"term" :                "Spring 2007",
			"type" :                "Professor-Rating",
			"professor-rating" :    "6.1"
		},
		{
			"professor" :           "D.Carter",
			"label" :               "6.931-1",
			"professor-rating-of" : "6.931",
			"term" :                "Spring 2007",
			"type" :                "Professor-Rating",
			"professor-rating" :    "5.6"
		},
		{
			"professor" :           "S.Teller",
			"label" :               "6.141-2",
			"professor-rating-of" : "6.141",
			"term" :                "Spring 2007",
			"type" :                "Professor-Rating",
			"professor-rating" :    "5.9"
		},
		{
			"professor" :           "S.Devadas",
			"label" :               "6.046/18.410J-1",
			"professor-rating-of" : "6.046/18.410J",
			"term" :                "Spring 2007",
			"type" :                "Professor-Rating",
			"professor-rating" :    "5.4"
		},
		{
			"professor" :           "T.Lozano-Perez",
			"label" :               "6.034-1",
			"professor-rating-of" : "6.034",
			"term" :                "Spring 2007",
			"type" :                "Professor-Rating"
		},
		{
			"professor" :           "B.Davie",
			"label" :               "6.898-1",
			"professor-rating-of" : "6.898",
			"term" :                "Spring 2007",
			"type" :                "Professor-Rating",
			"professor-rating" :    "5.6"
		},
		{
			"professor" :           "R.Ram",
			"label" :               "6.730-1",
			"professor-rating-of" : "6.730",
			"term" :                "Spring 2007",
			"type" :                "Professor-Rating",
			"professor-rating" :    "6.8"
		},
		{
			"professor" :           "C.Terman",
			"label" :               "6.02-1",
			"professor-rating-of" : "6.02",
			"term" :                "Spring 2007",
			"type" :                "Professor-Rating",
			"professor-rating" :    "7"
		},
		{
			"professor" :           "K.Berggren",
			"label" :               "6.781J/2.391J-1",
			"professor-rating-of" : "6.781J/2.391J",
			"term" :                "Spring 2007",
			"type" :                "Professor-Rating",
			"professor-rating" :    "5.1"
		},
		{
			"professor" :           "M.Dahleh",
			"label" :               "6.435-1",
			"professor-rating-of" : "6.435",
			"term" :                "Spring 2007",
			"type" :                "Professor-Rating",
			"professor-rating" :    "6.3"
		},
		{
			"professor" :           "C.Livermore",
			"label" :               "6.777J/2.372J-2",
			"professor-rating-of" : "6.777J/2.372J",
			"term" :                "Spring 2007",
			"type" :                "Professor-Rating",
			"professor-rating" :    "5.4"
		},
		{
			"professor" :           "J.Kong",
			"label" :               "6.013-1",
			"professor-rating-of" : "6.013",
			"term" :                "Spring 2007",
			"type" :                "Professor-Rating",
			"professor-rating" :    "6.3"
		},
		{
			"professor" :           "A.Willsky",
			"label" :               "6.003-1",
			"professor-rating-of" : "6.003",
			"term" :                "Spring 2007",
			"type" :                "Professor-Rating",
			"professor-rating" :    "5.2"
		},
		{
			"professor" :           "R.Mark",
			"label" :               "6.022-1",
			"professor-rating-of" : "6.022",
			"term" :                "Spring 2007",
			"type" :                "Professor-Rating",
			"professor-rating" :    "6.3"
		},
		{
			"professor" :           "S.Wells",
			"label" :               "6.555J/16.456J/HST.582J-2",
			"professor-rating-of" : "6.555J/16.456J/HST.582J",
			"term" :                "Spring 2007",
			"type" :                "Professor-Rating",
			"professor-rating" :    "5.1"
		},
		{
			"professor" :           "D.Rus",
			"label" :               "6.141-1",
			"professor-rating-of" : "6.141",
			"term" :                "Spring 2007",
			"type" :                "Professor-Rating",
			"professor-rating" :    "5.5"
		},
		{
			"professor" :           "S.Lloyd",
			"label" :               "6.050-1",
			"professor-rating-of" : "6.050",
			"term" :                "Spring 2007",
			"type" :                "Professor-Rating",
			"professor-rating" :    "5.9"
		},
		{
			"professor" :           "R.Roscoe",
			"label" :               "6.101-1",
			"professor-rating-of" : "6.101",
			"term" :                "Spring 2007",
			"type" :                "Professor-Rating",
			"professor-rating" :    "6"
		},
		{
			"professor" :           "A.Megretski",
			"label" :               "6.972-1",
			"professor-rating-of" : "6.972",
			"term" :                "Spring 2007",
			"type" :                "Professor-Rating",
			"professor-rating" :    "6.6"
		},
		{
			"professor" :           "N.Roy",
			"label" :               "6.141-3",
			"professor-rating-of" : "6.141",
			"term" :                "Spring 2007",
			"type" :                "Professor-Rating",
			"professor-rating" :    "5.4"
		},
		{
			"professor" :           "A.Agarwal",
			"label" :               "6.002-1",
			"professor-rating-of" : "6.002",
			"term" :                "Spring 2007",
			"type" :                "Professor-Rating",
			"professor-rating" :    "6.1"
		},
		{
			"professor" :           "M.Kellis",
			"label" :               "6.046/18.410J-2",
			"professor-rating-of" : "6.046/18.410J",
			"term" :                "Spring 2007",
			"type" :                "Professor-Rating",
			"professor-rating" :    "5.5"
		},
		{
			"professor" :           "D.Perreault",
			"label" :               "6.334-1",
			"professor-rating-of" : "6.334",
			"term" :                "Spring 2007",
			"type" :                "Professor-Rating",
			"professor-rating" :    "6.7"
		},
		{
			"professor" :           "R.Kamm",
			"label" :               "6.524-1",
			"professor-rating-of" : "6.524",
			"term" :                "Spring 2007",
			"type" :                "Professor-Rating",
			"professor-rating" :    "5.5"
		},
		{
			"professor" :           "J.Guttag",
			"label" :               "6.00-1",
			"professor-rating-of" : "6.00",
			"term" :                "Spring 2007",
			"type" :                "Professor-Rating",
			"professor-rating" :    "5.3"
		},
		{
			"professor" :           "D.Freeman",
			"label" :               "6.07J-1",
			"professor-rating-of" : "6.07J",
			"term" :                "Spring 2007",
			"type" :                "Professor-Rating",
			"professor-rating" :    "6.5"
		},
		{
			"professor" :           "R.Parker",
			"label" :               "6.002-2",
			"professor-rating-of" : "6.002",
			"term" :                "Spring 2007",
			"type" :                "Professor-Rating",
			"professor-rating" :    "3.3"
		},
		{
			"professor" :           "G.Apostolakis",
			"label" :               "6.938-1",
			"professor-rating-of" : "6.938",
			"term" :                "Spring 2007",
			"type" :                "Professor-Rating",
			"professor-rating" :    "5"
		},
		{
			"professor" :           "S.Micali",
			"label" :               "6.875J/18.425J-1",
			"professor-rating-of" : "6.875J/18.425J",
			"term" :                "Spring 2007",
			"type" :                "Professor-Rating",
			"professor-rating" :    "5.1"
		},
		{
			"professor" :           "C.Terman",
			"label" :               "6.004-1",
			"professor-rating-of" : "6.004",
			"term" :                "Spring 2007",
			"type" :                "Professor-Rating",
			"professor-rating" :    "6"
		},
		{
			"professor" :           "F.Kaertner",
			"label" :               "6.974-1",
			"professor-rating-of" : "6.974",
			"term" :                "Spring 2007",
			"type" :                "Professor-Rating",
			"professor-rating" :    "6.7"
		},
		{
			"professor" :           "A.Ozdaglar",
			"label" :               "6.252-1",
			"professor-rating-of" : "6.252",
			"term" :                "Spring 2007",
			"type" :                "Professor-Rating",
			"professor-rating" :    "5.3"
		},
		{
			"professor" :           "K.Stevens",
			"label" :               "6.541J/24.968J/HST.710J-1",
			"professor-rating-of" : "6.541J/24.968J/HST.710J",
			"term" :                "Spring 2007",
			"type" :                "Professor-Rating",
			"professor-rating" :    "3"
		},
		{
			"professor" :           "F.Durand",
			"label" :               "6.882-1",
			"professor-rating-of" : "6.882",
			"term" :                "Spring 2007",
			"type" :                "Professor-Rating",
			"professor-rating" :    "6.7"
		},
		{
			"professor" :           "R.Miller",
			"label" :               "6.001-1",
			"professor-rating-of" : "6.001",
			"term" :                "Spring 2007",
			"type" :                "Professor-Rating",
			"professor-rating" :    "5"
		},
		{
			"professor" :           "C.Rohrs",
			"label" :               "6.262-1",
			"professor-rating-of" : "6.262",
			"term" :                "Spring 2007",
			"type" :                "Professor-Rating",
			"professor-rating" :    "4.8"
		},
		{
			"professor" :           "R.Davis",
			"label" :               "6.870-1",
			"professor-rating-of" : "6.870",
			"term" :                "Spring 2007",
			"type" :                "Professor-Rating",
			"professor-rating" :    "6.6"
		},
		{
			"professor" :           "J.Fujimoto",
			"label" :               "6.634-1",
			"professor-rating-of" : "6.634",
			"term" :                "Spring 2007",
			"type" :                "Professor-Rating",
			"professor-rating" :    "3"
		},
		{
			"professor" :           "M.Perrott",
			"label" :               "6.02-3",
			"professor-rating-of" : "6.02",
			"term" :                "Spring 2007",
			"type" :                "Professor-Rating",
			"professor-rating" :    "6"
		},
		{
			"professor" :           "M.Kaashoek",
			"label" :               "6.033-2",
			"professor-rating-of" : "6.033",
			"term" :                "Spring 2007",
			"type" :                "Professor-Rating",
			"professor-rating" :    "5.7"
		},
		{
			"professor" :           "V.Goyal",
			"label" :               "6.342-1",
			"professor-rating-of" : "6.342",
			"term" :                "Spring 2007",
			"type" :                "Professor-Rating",
			"professor-rating" :    "6.1"
		},
		{
			"professor" :           "R.Berwick",
			"label" :               "6.863J/9.611J-1",
			"professor-rating-of" : "6.863J/9.611J",
			"term" :                "Spring 2007",
			"type" :                "Professor-Rating",
			"professor-rating" :    "5.4"
		},
		{
			"professor" :           "P.Parrilo",
			"label" :               "6.252-2",
			"professor-rating-of" : "6.252",
			"term" :                "Spring 2007",
			"type" :                "Professor-Rating",
			"professor-rating" :    "6.1"
		},
		{
			"professor" :           "J.Greenberg",
			"label" :               "6.555J/16.456J/HST.582J-1",
			"professor-rating-of" : "6.555J/16.456J/HST.582J",
			"term" :                "Spring 2007",
			"type" :                "Professor-Rating",
			"professor-rating" :    "6.2"
		},
		{
			"professor" :           "E.Grimson",
			"label" :               "6.001-2",
			"professor-rating-of" : "6.001",
			"term" :                "Spring 2007",
			"type" :                "Professor-Rating",
			"professor-rating" :    "5.4"
		},
		{
			"professor" :           "J.Fisher",
			"label" :               "6.555J/16.456J/HST.582J-4",
			"professor-rating-of" : "6.555J/16.456J/HST.582J",
			"term" :                "Spring 2007",
			"type" :                "Professor-Rating",
			"professor-rating" :    "4.7"
		},
		{
			"professor" :           "S.Amarasinghe",
			"label" :               "6.170-1",
			"professor-rating-of" : "6.170",
			"term" :                "Spring 2007",
			"type" :                "Professor-Rating",
			"professor-rating" :    "4.2"
		},
		{
			"professor" :           "J.White",
			"label" :               "6.01-2",
			"professor-rating-of" : "6.01",
			"term" :                "Spring 2007",
			"type" :                "Professor-Rating",
			"professor-rating" :    "6.5"
		},
		{
			"professor" :           "T.Darrell",
			"label" :               "6.870-2",
			"professor-rating-of" : "6.870",
			"term" :                "Spring 2007",
			"type" :                "Professor-Rating",
			"professor-rating" :    "5.1"
		},
		{
			"professor" :           "A.Oppenheim",
			"label" :               "6.011-1",
			"professor-rating-of" : "6.011",
			"term" :                "Spring 2007",
			"type" :                "Professor-Rating",
			"professor-rating" :    "5.4"
		},
		{
			"professor" :           "D.Karger",
			"label" :               "6.856J/18.416J-1",
			"professor-rating-of" : "6.856J/18.416J",
			"term" :                "Spring 2007",
			"type" :                "Professor-Rating",
			"professor-rating" :    "6.1"
		},
		{
			"professor" :           "F.Kaertner",
			"label" :               "6.084-1",
			"professor-rating-of" : "6.084",
			"term" :                "Spring 2007",
			"type" :                "Professor-Rating",
			"professor-rating" :    "6.5"
		},
		{
			"professor" :           "C.Stultz",
			"label" :               "6.522-1",
			"professor-rating-of" : "6.522",
			"term" :                "Spring 2007",
			"type" :                "Professor-Rating",
			"professor-rating" :    "5.7"
		},
		{
			"professor" :           "B.Tidor",
			"label" :               "6.581-1",
			"professor-rating-of" : "6.581",
			"term" :                "Spring 2007",
			"type" :                "Professor-Rating",
			"professor-rating" :    "5.9"
		},
		{
			"professor" :           "M.Sudan",
			"label" :               "6.841J/18.405J-1",
			"professor-rating-of" : "6.841J/18.405J",
			"term" :                "Spring 2007",
			"type" :                "Professor-Rating",
			"professor-rating" :    "6.6"
		},
		{
			"professor" :           "P.Winston",
			"label" :               "6.803-1",
			"professor-rating-of" : "6.803",
			"term" :                "Spring 2007",
			"type" :                "Professor-Rating",
			"professor-rating" :    "6.5"
		},
		{
			"professor" :           "H.Lee",
			"label" :               "6.775-1",
			"professor-rating-of" : "6.775",
			"term" :                "Spring 2007",
			"type" :                "Professor-Rating",
			"professor-rating" :    "6.3"
		},
		{
			"professor" :           "J.Wyatt",
			"label" :               "6.972-2",
			"professor-rating-of" : "6.972",
			"term" :                "Spring 2007",
			"type" :                "Professor-Rating",
			"professor-rating" :    "5.6"
		},
		{
			"professor" :           "L.Rudolph",
			"label" :               "6.883-1",
			"professor-rating-of" : "6.883",
			"term" :                "Spring 2007",
			"type" :                "Professor-Rating",
			"professor-rating" :    "5.4"
		},
		{
			"professor" :           "J.White",
			"label" :               "6.581-2",
			"professor-rating-of" : "6.581",
			"term" :                "Spring 2007",
			"type" :                "Professor-Rating",
			"professor-rating" :    "5"
		},
		{
			"professor" :           "B.Liskov",
			"label" :               "6.033-1",
			"professor-rating-of" : "6.033",
			"term" :                "Spring 2007",
			"type" :                "Professor-Rating",
			"professor-rating" :    "4"
		},
		{
			"professor" :           "J.Lim",
			"label" :               "6.344-1",
			"professor-rating-of" : "6.344",
			"term" :                "Spring 2007",
			"type" :                "Professor-Rating",
			"professor-rating" :    "6.3"
		},
		{
			"professor" :           "J.Tsitsiklis",
			"label" :               "6.041-1",
			"professor-rating-of" : "6.041",
			"term" :                "Spring 2007",
			"type" :                "Professor-Rating",
			"professor-rating" :    "5.7"
		},
		{
			"professor" :           "H.Balakrishnan",
			"label" :               "6.02-2",
			"professor-rating-of" : "6.02",
			"term" :                "Spring 2007",
			"type" :                "Professor-Rating",
			"professor-rating" :    "6.3"
		},
		{
			"professor" :           "G.Sussman",
			"label" :               "6.891-1",
			"professor-rating-of" : "6.891",
			"term" :                "Spring 2007",
			"type" :                "Professor-Rating",
			"professor-rating" :    "6.5"
		},
		{
			"professor" :           "E.Demaine",
			"label" :               "6.851-1",
			"professor-rating-of" : "6.851",
			"term" :                "Spring 2007",
			"type" :                "Professor-Rating",
			"professor-rating" :    "6.7"
		},
		{
			"professor" :           "R.Tedrake",
			"label" :               "6.881-1",
			"professor-rating-of" : "6.881",
			"term" :                "Spring 2007",
			"type" :                "Professor-Rating",
			"professor-rating" :    "6.2"
		},
		{
			"professor" :           "M.Baldo",
			"label" :               "6.975-1",
			"professor-rating-of" : "6.975",
			"term" :                "Spring 2007",
			"type" :                "Professor-Rating",
			"professor-rating" :    "7"
		},
		{
			"professor" :           "D.Shah",
			"label" :               "6.976-1",
			"professor-rating-of" : "6.976",
			"term" :                "Spring 2007",
			"type" :                "Professor-Rating",
			"professor-rating" :    "6"
		},
		{
			"professor" :           "J.Roberge",
			"label" :               "6.302-1",
			"professor-rating-of" : "6.302",
			"term" :                "Spring 2007",
			"type" :                "Professor-Rating",
			"professor-rating" :    "5"
		},
		{
			"professor" :           "Arvind",
			"label" :               "6.375-1",
			"professor-rating-of" : "6.375",
			"term" :                "Spring 2007",
			"type" :                "Professor-Rating",
			"professor-rating" :    "4.1"
		},
		{
			"professor" :           "J.Weng",
			"label" :               "6.887-1",
			"professor-rating-of" : "6.887",
			"term" :                "Spring 2007",
			"type" :                "Professor-Rating",
			"professor-rating" :    "6"
		},
		{
			"professor" :           "L.Kaelbling",
			"label" :               "6.01-1",
			"professor-rating-of" : "6.01",
			"term" :                "Spring 2007",
			"type" :                "Professor-Rating",
			"professor-rating" :    "5.8"
		},
		{
			"professor" :           "C.Sodini",
			"label" :               "6.012-1",
			"professor-rating-of" : "6.012",
			"term" :                "Spring 2007",
			"type" :                "Professor-Rating",
			"professor-rating" :    "5.4"
		}
	]
}